{
  "posts": [
    { "id": 1, "title": "Post 1" },
    { "id": 2, "title": "Post 2" },
    { "id": 3, "title": "Post 3" }
  ],
  "comments": [
    { "id": 1, "body": "some comment", "postId": 1 },
    { "id": 2, "body": "some comment", "postId": 1 }
  ],
  "profile": {
    "name": "typicode"
  },
  "players":
  [
        { "id": 1, "name": "Eni Elezi", "role": "Goalkeeper", "postcode": "KT6 6DY", "country": "UK", "lat": 51.389329, "lon":-0.301448 },
        { "id": 2, "name": "Enida Shqevi", "role": "Forward", "postcode": "E14 4AD", "country": "UK", "lat": 51.389329, "lon":-0.301448 },
        { "id": 3, "name": "Piqué", "role": "Defender", "postcode": "KT2 6QL", "country": "UK", "lat": 51.389329, "lon":-0.301448 },
        { "id": 4, "name": "I. Rakitic", "role": "Midfielder", "postcode": "SW7 4SF", "country": "UK", "lat": 51.389329, "lon":-0.301448 },
        { "id": 5, "name": "Sergio", "role": "Midfielder", "postcode": "WC1N 3LP", "country": "UK", "lat": 51.389329, "lon":-0.301448 },
        { "id": 6, "name": "Denis Suárez", "role": "Midfielder", "postcode": "KT6 6DY", "country": "UK", "lat": 51.389329, "lon":-0.301448 },
        { "id": 7, "name": "Arda", "role": "Midfielder", "postcode": "KT6 6DY", "country": "UK", "lat": 51.389329, "lon":-0.301448 },
        { "id": 8, "name": "A. Iniesta", "role": "Midfielder", "postcode": "KT6 6DY", "country": "UK", "lat": 51.389329, "lon":-0.301448 },
        { "id": 9, "name": "Suárez", "role": "Forward", "postcode": "KT6 6DY", "country": "UK", "lat": 51.389329, "lon":-0.301448 },
        { "id": 10, "name": "Messi", "role": "Forward", "postcode": "KT6 6DY", "country": "UK" , "lat": 51.389329, "lon":-0.301448 },
        { "id": 11, "name": "Neymar", "role": "Forward" , "postcode": "KT6 6DY", "country": "UK", "lat": 51.389329, "lon":-0.301448},
        { "id": 12, "name": "Rafinha", "role": "Midfielder", "postcode": "KT6 6DY", "country": "UK", "lat": 51.389329, "lon":-0.301448 },
        { "id": 13, "name": "Cillessen", "role": "Goalkeeper" , "postcode": "KT6 6DY", "country": "UK", "lat": 51.389329, "lon":-0.301448},
        { "id": 14, "name": "Mascherano", "role": "Defender", "postcode": "KT6 6DY", "country": "UK", "lat": 51.389329, "lon":-0.301448 },
        { "id": 17, "name": "Paco Alcácer", "role": "Forward", "postcode": "KT6 6DY", "country": "UK" , "lat": 51.389329, "lon":-0.301448 },
        { "id": 18, "name": "Jordi Alba", "role": "Defender", "postcode": "KT6 6DY", "country": "UK" , "lat": 51.389329, "lon":-0.301448 },
        { "id": 19, "name": "Digne", "role": "Defender", "postcode": "KT6 6DY", "country": "UK" , "lat": 51.389329, "lon":-0.301448 },
        { "id": 20, "name": "Sergi Roberto", "role": "Midfielder", "postcode": "KT6 6DY", "country": "UK" , "lat": 51.389329, "lon":-0.301448 },
        { "id": 21, "name": "André Gomes", "role": "Midfielder" , "postcode": "KT6 6DY", "country": "UK" , "lat": 51.389329, "lon":-0.301448},
        { "id": 22, "name": "Aleix Vidal", "role": "Midfielder" , "postcode": "KT6 6DY", "country": "UK" , "lat": 51.389329, "lon":-0.301448},
        { "id": 23, "name": "Umtiti", "role": "Defender" , "postcode": "KT6 6DY", "country": "UK" , "lat": 51.389329, "lon":-0.301448},
        { "id": 24, "name": "Mathieu", "role": "Defender" , "postcode": "KT6 6DY", "country": "UK" , "lat": 51.389329, "lon":-0.301448},
        { "id": 25, "name": "Masip", "role": "Goalkeeper", "postcode": "KT6 6DY", "country": "UK" , "lat": 51.389329, "lon":-0.301448 }
    ]
}
